[
  {
    "stop_id": 1,
    "stop_code": "",
    "stop_name": "福祉センター",
    "stop_desc": "",
    "stop_lat": 33.58650764,
    "stop_lon": 130.5093482,
    "zone_id": "",
    "stop_url": "",
    "location_type": 0,
    "parent_station": "",
    "stop_timezone": "",
    "wheelchair_boarding": ""
  },
  {
    "stop_id": 2,
    "stop_code": "",
    "stop_name": "須恵宝満宮",
    "stop_desc": "",
    "stop_lat": 33.59113128,
    "stop_lon": 130.5057326,
    "zone_id": "",
    "stop_url": "",
    "location_type": 0,
    "parent_station": "",
    "stop_timezone": "",
    "wheelchair_boarding": ""
  },
  {
    "stop_id": 3,
    "stop_code": "",
    "stop_name": "須恵",
    "stop_desc": "",
    "stop_lat": 33.59328881,
    "stop_lon": 130.5022407,
    "zone_id": "",
    "stop_url": "",
    "location_type": 0,
    "parent_station": "",
    "stop_timezone": "",
    "wheelchair_boarding": ""
  },
  {
    "stop_id": 4,
    "stop_code": "",
    "stop_name": "甲植木踏切前",
    "stop_desc": "",
    "stop_lat": 33.594105,
    "stop_lon": 130.499896,
    "zone_id": "",
    "stop_url": "",
    "location_type": 0,
    "parent_station": "",
    "stop_timezone": "",
    "wheelchair_boarding": ""
  },
  {
    "stop_id": 5,
    "stop_code": "",
    "stop_name": "旅石公民館",
    "stop_desc": "",
    "stop_lat": 33.59168467,
    "stop_lon": 130.4980917,
    "zone_id": "",
    "stop_url": "",
    "location_type": 0,
    "parent_station": "",
    "stop_timezone": "",
    "wheelchair_boarding": ""
  },
  {
    "stop_id": "6w",
    "stop_code": "",
    "stop_name": "ぼた山整理記念碑前",
    "stop_desc": "",
    "stop_lat": 33.58974256,
    "stop_lon": 130.4953866,
    "zone_id": "",
    "stop_url": "",
    "location_type": 0,
    "parent_station": "",
    "stop_timezone": "",
    "wheelchair_boarding": ""
  },
  {
    "stop_id": "6e",
    "stop_code": "",
    "stop_name": "ぼた山整理記念碑前",
    "stop_desc": "",
    "stop_lat": 33.58993189,
    "stop_lon": 130.4954724,
    "zone_id": "",
    "stop_url": "",
    "location_type": 0,
    "parent_station": "",
    "stop_timezone": "",
    "wheelchair_boarding": ""
  },
  {
    "stop_id": 7,
    "stop_code": "",
    "stop_name": "西原第一公民館",
    "stop_desc": "",
    "stop_lat": 33.59188509,
    "stop_lon": 130.4915897,
    "zone_id": "",
    "stop_url": "",
    "location_type": 0,
    "parent_station": "",
    "stop_timezone": "",
    "wheelchair_boarding": ""
  },
  {
    "stop_id": 8,
    "stop_code": "",
    "stop_name": "西体育館",
    "stop_desc": "",
    "stop_lat": 33.59082652,
    "stop_lon": 130.4924191,
    "zone_id": "",
    "stop_url": "",
    "location_type": 0,
    "parent_station": "",
    "stop_timezone": "",
    "wheelchair_boarding": ""
  },
  {
    "stop_id": 9,
    "stop_code": "",
    "stop_name": "旭ヶ丘児童遊園",
    "stop_desc": "",
    "stop_lat": 33.58946138,
    "stop_lon": 130.4937232,
    "zone_id": "",
    "stop_url": "",
    "location_type": 0,
    "parent_station": "",
    "stop_timezone": "",
    "wheelchair_boarding": ""
  },
  {
    "stop_id": 10,
    "stop_code": "",
    "stop_name": "恵西公民館",
    "stop_desc": "",
    "stop_lat": 33.58688045,
    "stop_lon": 130.4957167,
    "zone_id": "",
    "stop_url": "",
    "location_type": 0,
    "parent_station": "",
    "stop_timezone": "",
    "wheelchair_boarding": ""
  },
  {
    "stop_id": 11,
    "stop_code": "",
    "stop_name": "山の神広場",
    "stop_desc": "",
    "stop_lat": 33.58532187,
    "stop_lon": 130.4979319,
    "zone_id": "",
    "stop_url": "",
    "location_type": 0,
    "parent_station": "",
    "stop_timezone": "",
    "wheelchair_boarding": ""
  },
  {
    "stop_id": 12,
    "stop_code": "",
    "stop_name": "旅石郵便局",
    "stop_desc": "",
    "stop_lat": 33.58554015,
    "stop_lon": 130.4955191,
    "zone_id": "",
    "stop_url": "",
    "location_type": 0,
    "parent_station": "",
    "stop_timezone": "",
    "wheelchair_boarding": ""
  },
  {
    "stop_id": 13,
    "stop_code": "",
    "stop_name": "昭穂児童遊園",
    "stop_desc": "",
    "stop_lat": 33.58575396,
    "stop_lon": 130.4936283,
    "zone_id": "",
    "stop_url": "",
    "location_type": 0,
    "parent_station": "",
    "stop_timezone": "",
    "wheelchair_boarding": ""
  },
  {
    "stop_id": 14,
    "stop_code": "",
    "stop_name": "須原台入口",
    "stop_desc": "",
    "stop_lat": 33.58430107,
    "stop_lon": 130.4955378,
    "zone_id": "",
    "stop_url": "",
    "location_type": 0,
    "parent_station": "",
    "stop_timezone": "",
    "wheelchair_boarding": ""
  },
  {
    "stop_id": 15,
    "stop_code": "",
    "stop_name": "正信会　水戸病院前",
    "stop_desc": "",
    "stop_lat": 33.5840456,
    "stop_lon": 130.4972483,
    "zone_id": "",
    "stop_url": "",
    "location_type": 0,
    "parent_station": "",
    "stop_timezone": "",
    "wheelchair_boarding": ""
  },
  {
    "stop_id": 16,
    "stop_code": "",
    "stop_name": "須恵第三小学校",
    "stop_desc": "",
    "stop_lat": 33.58308276,
    "stop_lon": 130.4992975,
    "zone_id": "",
    "stop_url": "",
    "location_type": 0,
    "parent_station": "",
    "stop_timezone": "",
    "wheelchair_boarding": ""
  },
  {
    "stop_id": 17,
    "stop_code": "",
    "stop_name": "JA育苗センター",
    "stop_desc": "",
    "stop_lat": 33.58429064,
    "stop_lon": 130.5014697,
    "zone_id": "",
    "stop_url": "",
    "location_type": 0,
    "parent_station": "",
    "stop_timezone": "",
    "wheelchair_boarding": ""
  },
  {
    "stop_id": "18n",
    "stop_code": "",
    "stop_name": "めぐみ保育園",
    "stop_desc": "",
    "stop_lat": 33.58644662,
    "stop_lon": 130.5032728,
    "zone_id": "",
    "stop_url": "",
    "location_type": 0,
    "parent_station": "",
    "stop_timezone": "",
    "wheelchair_boarding": ""
  },
  {
    "stop_id": "18s",
    "stop_code": "",
    "stop_name": "めぐみ保育園",
    "stop_desc": "",
    "stop_lat": 33.58635861,
    "stop_lon": 130.5032442,
    "zone_id": "",
    "stop_url": "",
    "location_type": 0,
    "parent_station": "",
    "stop_timezone": "",
    "wheelchair_boarding": ""
  },
  {
    "stop_id": 19,
    "stop_code": "",
    "stop_name": "須恵中央駅",
    "stop_desc": "",
    "stop_lat": 33.586506,
    "stop_lon": 130.505867,
    "zone_id": "",
    "stop_url": "",
    "location_type": 0,
    "parent_station": "",
    "stop_timezone": "",
    "wheelchair_boarding": ""
  },
  {
    "stop_id": 20,
    "stop_code": "",
    "stop_name": "須恵町役場",
    "stop_desc": "",
    "stop_lat": 33.587039,
    "stop_lon": 130.507579,
    "zone_id": "",
    "stop_url": "",
    "location_type": 0,
    "parent_station": "",
    "stop_timezone": "",
    "wheelchair_boarding": ""
  },
  {
    "stop_id": 21,
    "stop_code": "",
    "stop_name": "上須恵口",
    "stop_desc": "",
    "stop_lat": 33.58791201,
    "stop_lon": 130.5129253,
    "zone_id": "",
    "stop_url": "",
    "location_type": 0,
    "parent_station": "",
    "stop_timezone": "",
    "wheelchair_boarding": ""
  },
  {
    "stop_id": 22,
    "stop_code": "",
    "stop_name": "一番田公民館",
    "stop_desc": "",
    "stop_lat": 33.590442,
    "stop_lon": 130.512149,
    "zone_id": "",
    "stop_url": "",
    "location_type": 0,
    "parent_station": "",
    "stop_timezone": "",
    "wheelchair_boarding": ""
  },
  {
    "stop_id": 23,
    "stop_code": "",
    "stop_name": "一番田入口",
    "stop_desc": "",
    "stop_lat": 33.59215227,
    "stop_lon": 130.5080753,
    "zone_id": "",
    "stop_url": "",
    "location_type": 0,
    "parent_station": "",
    "stop_timezone": "",
    "wheelchair_boarding": ""
  },
  {
    "stop_id": "24n",
    "stop_code": "",
    "stop_name": "赤坂",
    "stop_desc": "",
    "stop_lat": 33.596105,
    "stop_lon": 130.50486,
    "zone_id": "",
    "stop_url": "",
    "location_type": 0,
    "parent_station": "",
    "stop_timezone": "",
    "wheelchair_boarding": ""
  },
  {
    "stop_id": "24s",
    "stop_code": "",
    "stop_name": "赤坂",
    "stop_desc": "",
    "stop_lat": 33.595865,
    "stop_lon": 130.504724,
    "zone_id": "",
    "stop_url": "",
    "location_type": 0,
    "parent_station": "",
    "stop_timezone": "",
    "wheelchair_boarding": ""
  },
  {
    "stop_id": 25,
    "stop_code": "",
    "stop_name": "城山公民館",
    "stop_desc": "",
    "stop_lat": 33.59649617,
    "stop_lon": 130.5095441,
    "zone_id": "",
    "stop_url": "",
    "location_type": 0,
    "parent_station": "",
    "stop_timezone": "",
    "wheelchair_boarding": ""
  },
  {
    "stop_id": 26,
    "stop_code": "",
    "stop_name": "城山東",
    "stop_desc": "",
    "stop_lat": 33.597761,
    "stop_lon": 130.5115364,
    "zone_id": "",
    "stop_url": "",
    "location_type": 0,
    "parent_station": "",
    "stop_timezone": "",
    "wheelchair_boarding": ""
  },
  {
    "stop_id": 27,
    "stop_code": "",
    "stop_name": "城山",
    "stop_desc": "",
    "stop_lat": 33.59638654,
    "stop_lon": 130.5118033,
    "zone_id": "",
    "stop_url": "",
    "location_type": 0,
    "parent_station": "",
    "stop_timezone": "",
    "wheelchair_boarding": ""
  },
  {
    "stop_id": 28,
    "stop_code": "",
    "stop_name": "かやの",
    "stop_desc": "",
    "stop_lat": 33.59497539,
    "stop_lon": 130.5105203,
    "zone_id": "",
    "stop_url": "",
    "location_type": 0,
    "parent_station": "",
    "stop_timezone": "",
    "wheelchair_boarding": ""
  },
  {
    "stop_id": 29,
    "stop_code": "",
    "stop_name": "一番田",
    "stop_desc": "",
    "stop_lat": 33.59310205,
    "stop_lon": 130.5123252,
    "zone_id": "",
    "stop_url": "",
    "location_type": 0,
    "parent_station": "",
    "stop_timezone": "",
    "wheelchair_boarding": ""
  },
  {
    "stop_id": 30,
    "stop_code": "",
    "stop_name": "藤浦公民館",
    "stop_desc": "",
    "stop_lat": 33.59365731,
    "stop_lon": 130.5148107,
    "zone_id": "",
    "stop_url": "",
    "location_type": 0,
    "parent_station": "",
    "stop_timezone": "",
    "wheelchair_boarding": ""
  },
  {
    "stop_id": 31,
    "stop_code": "",
    "stop_name": "市場池",
    "stop_desc": "",
    "stop_lat": 33.5938234,
    "stop_lon": 130.5158982,
    "zone_id": "",
    "stop_url": "",
    "location_type": 0,
    "parent_station": "",
    "stop_timezone": "",
    "wheelchair_boarding": ""
  },
  {
    "stop_id": 32,
    "stop_code": "",
    "stop_name": "久我記念館入口",
    "stop_desc": "",
    "stop_lat": 33.59506825,
    "stop_lon": 130.5163409,
    "zone_id": "",
    "stop_url": "",
    "location_type": 0,
    "parent_station": "",
    "stop_timezone": "",
    "wheelchair_boarding": ""
  },
  {
    "stop_id": 33,
    "stop_code": "",
    "stop_name": "天神の木",
    "stop_desc": "",
    "stop_lat": 33.58718741,
    "stop_lon": 130.5113728,
    "zone_id": "",
    "stop_url": "",
    "location_type": 0,
    "parent_station": "",
    "stop_timezone": "",
    "wheelchair_boarding": ""
  },
  {
    "stop_id": 34,
    "stop_code": "",
    "stop_name": "川子入口",
    "stop_desc": "",
    "stop_lat": 33.5833663,
    "stop_lon": 130.5131751,
    "zone_id": "",
    "stop_url": "",
    "location_type": 0,
    "parent_station": "",
    "stop_timezone": "",
    "wheelchair_boarding": ""
  },
  {
    "stop_id": 35,
    "stop_code": "",
    "stop_name": "川子公民館",
    "stop_desc": "",
    "stop_lat": 33.58227646,
    "stop_lon": 130.5148888,
    "zone_id": "",
    "stop_url": "",
    "location_type": 0,
    "parent_station": "",
    "stop_timezone": "",
    "wheelchair_boarding": ""
  },
  {
    "stop_id": 36,
    "stop_code": "",
    "stop_name": "須恵第一小学校南",
    "stop_desc": "",
    "stop_lat": 33.584515,
    "stop_lon": 130.515799,
    "zone_id": "",
    "stop_url": "",
    "location_type": 0,
    "parent_station": "",
    "stop_timezone": "",
    "wheelchair_boarding": ""
  },
  {
    "stop_id": 37,
    "stop_code": "",
    "stop_name": "南米里公民館",
    "stop_desc": "",
    "stop_lat": 33.58379073,
    "stop_lon": 130.5173405,
    "zone_id": "",
    "stop_url": "",
    "location_type": 0,
    "parent_station": "",
    "stop_timezone": "",
    "wheelchair_boarding": ""
  },
  {
    "stop_id": "38w",
    "stop_code": "",
    "stop_name": "泰平病院・永寿苑前",
    "stop_desc": "",
    "stop_lat": 33.58022197,
    "stop_lon": 130.5148874,
    "zone_id": "",
    "stop_url": "",
    "location_type": 0,
    "parent_station": "",
    "stop_timezone": "",
    "wheelchair_boarding": ""
  },
  {
    "stop_id": "38e",
    "stop_code": "",
    "stop_name": "泰平病院・永寿苑前",
    "stop_desc": "",
    "stop_lat": 33.58018195,
    "stop_lon": 130.515288,
    "zone_id": "",
    "stop_url": "",
    "location_type": 0,
    "parent_station": "",
    "stop_timezone": "",
    "wheelchair_boarding": ""
  },
  {
    "stop_id": 39,
    "stop_code": "",
    "stop_name": "新原向原",
    "stop_desc": "",
    "stop_lat": 33.579762,
    "stop_lon": 130.511762,
    "zone_id": "",
    "stop_url": "",
    "location_type": 0,
    "parent_station": "",
    "stop_timezone": "",
    "wheelchair_boarding": ""
  },
  {
    "stop_id": 40,
    "stop_code": "",
    "stop_name": "新原駅口",
    "stop_desc": "",
    "stop_lat": 33.57993495,
    "stop_lon": 130.5090447,
    "zone_id": "",
    "stop_url": "",
    "location_type": 0,
    "parent_station": "",
    "stop_timezone": "",
    "wheelchair_boarding": ""
  },
  {
    "stop_id": 41,
    "stop_code": "",
    "stop_name": "新原児童公園",
    "stop_desc": "",
    "stop_lat": 33.582,
    "stop_lon": 130.508763,
    "zone_id": "",
    "stop_url": "",
    "location_type": 0,
    "parent_station": "",
    "stop_timezone": "",
    "wheelchair_boarding": ""
  },
  {
    "stop_id": 42,
    "stop_code": "",
    "stop_name": "新原昭元町集会所",
    "stop_desc": "",
    "stop_lat": 33.581666,
    "stop_lon": 130.506872,
    "zone_id": "",
    "stop_url": "",
    "location_type": 0,
    "parent_station": "",
    "stop_timezone": "",
    "wheelchair_boarding": ""
  },
  {
    "stop_id": 43,
    "stop_code": "",
    "stop_name": "仲島入口",
    "stop_desc": "",
    "stop_lat": 33.5841329,
    "stop_lon": 130.5230347,
    "zone_id": "",
    "stop_url": "",
    "location_type": 0,
    "parent_station": "",
    "stop_timezone": "",
    "wheelchair_boarding": ""
  },
  {
    "stop_id": 44,
    "stop_code": "",
    "stop_name": "永原",
    "stop_desc": "",
    "stop_lat": 33.58169768,
    "stop_lon": 130.5249812,
    "zone_id": "",
    "stop_url": "",
    "location_type": 0,
    "parent_station": "",
    "stop_timezone": "",
    "wheelchair_boarding": ""
  },
  {
    "stop_id": 45,
    "stop_code": "",
    "stop_name": "上永原団地",
    "stop_desc": "",
    "stop_lat": 33.58071606,
    "stop_lon": 130.5262113,
    "zone_id": "",
    "stop_url": "",
    "location_type": 0,
    "parent_station": "",
    "stop_timezone": "",
    "wheelchair_boarding": ""
  },
  {
    "stop_id": 46,
    "stop_code": "",
    "stop_name": "古の添",
    "stop_desc": "",
    "stop_lat": 33.57937553,
    "stop_lon": 130.5293033,
    "zone_id": "",
    "stop_url": "",
    "location_type": 0,
    "parent_station": "",
    "stop_timezone": "",
    "wheelchair_boarding": ""
  },
  {
    "stop_id": 47,
    "stop_code": "",
    "stop_name": "上の原",
    "stop_desc": "",
    "stop_lat": 33.57717008,
    "stop_lon": 130.5311043,
    "zone_id": "",
    "stop_url": "",
    "location_type": 0,
    "parent_station": "",
    "stop_timezone": "",
    "wheelchair_boarding": ""
  },
  {
    "stop_id": 48,
    "stop_code": "",
    "stop_name": "田床入口",
    "stop_desc": "",
    "stop_lat": 33.57775216,
    "stop_lon": 130.5329494,
    "zone_id": "",
    "stop_url": "",
    "location_type": 0,
    "parent_station": "",
    "stop_timezone": "",
    "wheelchair_boarding": ""
  },
  {
    "stop_id": 49,
    "stop_code": "",
    "stop_name": "立花寺",
    "stop_desc": "",
    "stop_lat": 33.58060408,
    "stop_lon": 130.5392292,
    "zone_id": "",
    "stop_url": "",
    "location_type": 0,
    "parent_station": "",
    "stop_timezone": "",
    "wheelchair_boarding": ""
  },
  {
    "stop_id": 50,
    "stop_code": "",
    "stop_name": "運動公園入口",
    "stop_desc": "",
    "stop_lat": 33.57961518,
    "stop_lon": 130.5361428,
    "zone_id": "",
    "stop_url": "",
    "location_type": 0,
    "parent_station": "",
    "stop_timezone": "",
    "wheelchair_boarding": ""
  },
  {
    "stop_id": 51,
    "stop_code": "",
    "stop_name": "観音谷集会所",
    "stop_desc": "",
    "stop_lat": 33.58172567,
    "stop_lon": 130.5353096,
    "zone_id": "",
    "stop_url": "",
    "location_type": 0,
    "parent_station": "",
    "stop_timezone": "",
    "wheelchair_boarding": ""
  },
  {
    "stop_id": "52w",
    "stop_code": "",
    "stop_name": "佐谷",
    "stop_desc": "",
    "stop_lat": 33.58125169,
    "stop_lon": 130.5281722,
    "zone_id": "",
    "stop_url": "",
    "location_type": 0,
    "parent_station": "",
    "stop_timezone": "",
    "wheelchair_boarding": ""
  },
  {
    "stop_id": "52e",
    "stop_code": "",
    "stop_name": "佐谷",
    "stop_desc": "",
    "stop_lat": 33.58118792,
    "stop_lon": 130.5283443,
    "zone_id": "",
    "stop_url": "",
    "location_type": 0,
    "parent_station": "",
    "stop_timezone": "",
    "wheelchair_boarding": ""
  },
  {
    "stop_id": 53,
    "stop_code": "",
    "stop_name": "皿山公園入口",
    "stop_desc": "",
    "stop_lat": 33.58586125,
    "stop_lon": 130.5210019,
    "zone_id": "",
    "stop_url": "",
    "location_type": 0,
    "parent_station": "",
    "stop_timezone": "",
    "wheelchair_boarding": ""
  },
  {
    "stop_id": 54,
    "stop_code": "",
    "stop_name": "佐谷川原",
    "stop_desc": "",
    "stop_lat": 33.58801375,
    "stop_lon": 130.5228703,
    "zone_id": "",
    "stop_url": "",
    "location_type": 0,
    "parent_station": "",
    "stop_timezone": "",
    "wheelchair_boarding": ""
  },
  {
    "stop_id": 55,
    "stop_code": "",
    "stop_name": "皿山公園",
    "stop_desc": "",
    "stop_lat": 33.59117307,
    "stop_lon": 130.5245061,
    "zone_id": "",
    "stop_url": "",
    "location_type": 0,
    "parent_station": "",
    "stop_timezone": "",
    "wheelchair_boarding": ""
  },
  {
    "stop_id": 56,
    "stop_code": "",
    "stop_name": "平原池",
    "stop_desc": "",
    "stop_lat": 33.58997736,
    "stop_lon": 130.5233084,
    "zone_id": "",
    "stop_url": "",
    "location_type": 0,
    "parent_station": "",
    "stop_timezone": "",
    "wheelchair_boarding": ""
  },
  {
    "stop_id": 57,
    "stop_code": "",
    "stop_name": "皿山",
    "stop_desc": "",
    "stop_lat": 33.59156666,
    "stop_lon": 130.5213536,
    "zone_id": "",
    "stop_url": "",
    "location_type": 0,
    "parent_station": "",
    "stop_timezone": "",
    "wheelchair_boarding": ""
  },
  {
    "stop_id": 58,
    "stop_code": "",
    "stop_name": "上須恵消防格納庫",
    "stop_desc": "",
    "stop_lat": 33.59044209,
    "stop_lon": 130.5186501,
    "zone_id": "",
    "stop_url": "",
    "location_type": 0,
    "parent_station": "",
    "stop_timezone": "",
    "wheelchair_boarding": ""
  },
  {
    "stop_id": 59,
    "stop_code": "",
    "stop_name": "上須恵戸頃ふれあい会館",
    "stop_desc": "",
    "stop_lat": 33.58966024,
    "stop_lon": 130.5162998,
    "zone_id": "",
    "stop_url": "",
    "location_type": 0,
    "parent_station": "",
    "stop_timezone": "",
    "wheelchair_boarding": ""
  },
  {
    "stop_id": 60,
    "stop_code": "",
    "stop_name": "中園",
    "stop_desc": "",
    "stop_lat": 33.58952946,
    "stop_lon": 130.5151887,
    "zone_id": "",
    "stop_url": "",
    "location_type": 0,
    "parent_station": "",
    "stop_timezone": "",
    "wheelchair_boarding": ""
  },
  {
    "stop_id": 61,
    "stop_code": "",
    "stop_name": "甲植木上",
    "stop_desc": "",
    "stop_lat": 33.59683029,
    "stop_lon": 130.5041624,
    "zone_id": "",
    "stop_url": "",
    "location_type": 0,
    "parent_station": "",
    "stop_timezone": "",
    "wheelchair_boarding": ""
  },
  {
    "stop_id": 62,
    "stop_code": "",
    "stop_name": "甲植木下",
    "stop_desc": "",
    "stop_lat": 33.60056593,
    "stop_lon": 130.503019,
    "zone_id": "",
    "stop_url": "",
    "location_type": 0,
    "parent_station": "",
    "stop_timezone": "",
    "wheelchair_boarding": ""
  },
  {
    "stop_id": "63n",
    "stop_code": "",
    "stop_name": "平原",
    "stop_desc": "",
    "stop_lat": 33.60746353,
    "stop_lon": 130.5017157,
    "zone_id": "",
    "stop_url": "",
    "location_type": 0,
    "parent_station": "",
    "stop_timezone": "",
    "wheelchair_boarding": ""
  },
  {
    "stop_id": "63s",
    "stop_code": "",
    "stop_name": "平原",
    "stop_desc": "",
    "stop_lat": 33.6072455,
    "stop_lon": 130.5017349,
    "zone_id": "",
    "stop_url": "",
    "location_type": 0,
    "parent_station": "",
    "stop_timezone": "",
    "wheelchair_boarding": ""
  },
  {
    "stop_id": 64,
    "stop_code": "",
    "stop_name": "大間",
    "stop_desc": "",
    "stop_lat": 33.61028953892092,
    "stop_lon": 130.49837383189234,
    "zone_id": "",
    "stop_url": "",
    "location_type": 0,
    "parent_station": "",
    "stop_timezone": "",
    "wheelchair_boarding": ""
  },
  {
    "stop_id": 65,
    "stop_code": "",
    "stop_name": "中野",
    "stop_desc": "",
    "stop_lat": 33.60312647,
    "stop_lon": 130.4908646,
    "zone_id": "",
    "stop_url": "",
    "location_type": 0,
    "parent_station": "",
    "stop_timezone": "",
    "wheelchair_boarding": ""
  },
  {
    "stop_id": 66,
    "stop_code": "",
    "stop_name": "乙植木コミセン",
    "stop_desc": "",
    "stop_lat": 33.60224478,
    "stop_lon": 130.491168,
    "zone_id": "",
    "stop_url": "",
    "location_type": 0,
    "parent_station": "",
    "stop_timezone": "",
    "wheelchair_boarding": ""
  },
  {
    "stop_id": 67,
    "stop_code": "",
    "stop_name": "乙植木踏切前",
    "stop_desc": "",
    "stop_lat": 33.60015131,
    "stop_lon": 130.4914402,
    "zone_id": "",
    "stop_url": "",
    "location_type": 0,
    "parent_station": "",
    "stop_timezone": "",
    "wheelchair_boarding": ""
  },
  {
    "stop_id": 68,
    "stop_code": "",
    "stop_name": "乙植木",
    "stop_desc": "",
    "stop_lat": 33.5996959,
    "stop_lon": 130.4925139,
    "zone_id": "",
    "stop_url": "",
    "location_type": 0,
    "parent_station": "",
    "stop_timezone": "",
    "wheelchair_boarding": ""
  },
  {
    "stop_id": 69,
    "stop_code": "",
    "stop_name": "須恵駅",
    "stop_desc": "",
    "stop_lat": 33.59696881,
    "stop_lon": 130.497531,
    "zone_id": "",
    "stop_url": "",
    "location_type": 0,
    "parent_station": "",
    "stop_timezone": "",
    "wheelchair_boarding": ""
  },
  {
    "stop_id": 70,
    "stop_code": "",
    "stop_name": "旅石",
    "stop_desc": "",
    "stop_lat": 33.59490788,
    "stop_lon": 130.4996938,
    "zone_id": "",
    "stop_url": "",
    "location_type": 0,
    "parent_station": "",
    "stop_timezone": "",
    "wheelchair_boarding": ""
  },
  {
    "stop_id": "71w",
    "stop_code": "",
    "stop_name": "西原",
    "stop_desc": "",
    "stop_lat": 33.59222470750395,
    "stop_lon": 130.49302546303423,
    "zone_id": "",
    "stop_url": "",
    "location_type": 0,
    "parent_station": "",
    "stop_timezone": "",
    "wheelchair_boarding": ""
  },
  {
    "stop_id": "71e",
    "stop_code": "",
    "stop_name": "西原",
    "stop_desc": "",
    "stop_lat": 33.59230895221716,
    "stop_lon": 130.49311484611806,
    "zone_id": "",
    "stop_url": "",
    "location_type": 0,
    "parent_station": "",
    "stop_timezone": "",
    "wheelchair_boarding": ""
  },
  {
    "stop_id": 72,
    "stop_code": "",
    "stop_name": "コメリパワー須恵店前",
    "stop_desc": "",
    "stop_lat": 33.58941185069764,
    "stop_lon": 130.49663137673417,
    "zone_id": "",
    "stop_url": "",
    "location_type": 0,
    "parent_station": "",
    "stop_timezone": "",
    "wheelchair_boarding": ""
  },
  {
    "stop_id": "73w",
    "stop_code": "",
    "stop_name": "須恵IC入口",
    "stop_desc": "",
    "stop_lat": 33.58810907721533,
    "stop_lon": 130.49739735553155,
    "zone_id": "",
    "stop_url": "",
    "location_type": 0,
    "parent_station": "",
    "stop_timezone": "",
    "wheelchair_boarding": ""
  },
  {
    "stop_id": "73e",
    "stop_code": "",
    "stop_name": "須恵IC入口",
    "stop_desc": "",
    "stop_lat": 33.58796719622501,
    "stop_lon": 130.49774718375562,
    "zone_id": "",
    "stop_url": "",
    "location_type": 0,
    "parent_station": "",
    "stop_timezone": "",
    "wheelchair_boarding": ""
  },
  {
    "stop_id": 74,
    "stop_code": "",
    "stop_name": "須恵第二小学校",
    "stop_desc": "",
    "stop_lat": 33.598835715611315,
    "stop_lon": 130.4976159663988,
    "zone_id": "",
    "stop_url": "",
    "location_type": 0,
    "parent_station": "",
    "stop_timezone": "",
    "wheelchair_boarding": ""
  },
  {
    "stop_id": 75,
    "stop_code": "",
    "stop_name": "佐谷建正寺",
    "stop_desc": "",
    "stop_lat": 33.58498763294895,
    "stop_lon": 130.5389538405715,
    "zone_id": "",
    "stop_url": "",
    "location_type": 0,
    "parent_station": "",
    "stop_timezone": "",
    "wheelchair_boarding": ""
  },
  {
    "stop_id": 76,
    "stop_code": "",
    "stop_name": "南米里7組",
    "stop_desc": "",
    "stop_lat": 33.576146461699764,
    "stop_lon": 130.52402199041697,
    "zone_id": "",
    "stop_url": "",
    "location_type": 0,
    "parent_station": "",
    "stop_timezone": "",
    "wheelchair_boarding": ""
  },
  {
    "stop_id": "77e",
    "stop_code": "",
    "stop_name": "新原工業団地",
    "stop_desc": "",
    "stop_lat": 33.577520153324095,
    "stop_lon": 130.5167225233042,
    "zone_id": "",
    "stop_url": "",
    "location_type": 0,
    "parent_station": "",
    "stop_timezone": "",
    "wheelchair_boarding": ""
  },
  {
    "stop_id": "77w",
    "stop_code": "",
    "stop_name": "新原工業団地",
    "stop_desc": "",
    "stop_lat": 33.5775695947382,
    "stop_lon": 130.51660167302722,
    "zone_id": "",
    "stop_url": "",
    "location_type": 0,
    "parent_station": "",
    "stop_timezone": "",
    "wheelchair_boarding": ""
  },
  {
    "stop_id": 78,
    "stop_code": "",
    "stop_name": "東中下",
    "stop_desc": "",
    "stop_lat": 33.60157184221358,
    "stop_lon": 130.5081095283114,
    "zone_id": "",
    "stop_url": "",
    "location_type": 0,
    "parent_station": "",
    "stop_timezone": "",
    "wheelchair_boarding": ""
  },
  {
    "stop_id": 79,
    "stop_code": "",
    "stop_name": "須恵中学校",
    "stop_desc": "",
    "stop_lat": 33.584554427066124,
    "stop_lon": 130.51111846959665,
    "zone_id": "",
    "stop_url": "",
    "location_type": 0,
    "parent_station": "",
    "stop_timezone": "",
    "wheelchair_boarding": ""
  },
  {
    "stop_id": 80,
    "stop_code": "",
    "stop_name": "金堀公園前",
    "stop_desc": "",
    "stop_lat": 33.58542844170643,
    "stop_lon": 130.5178864396575,
    "zone_id": "",
    "stop_url": "",
    "location_type": 0,
    "parent_station": "",
    "stop_timezone": "",
    "wheelchair_boarding": ""
  },
  {
    "stop_id": "81n",
    "stop_code": "",
    "stop_name": "旅石八幡前",
    "stop_desc": "",
    "stop_lat": 33.59415010080915,
    "stop_lon": 130.4963106054894,
    "zone_id": "",
    "stop_url": "",
    "location_type": 0,
    "parent_station": "",
    "stop_timezone": "",
    "wheelchair_boarding": ""
  },
  {
    "stop_id": "81s",
    "stop_code": "",
    "stop_name": "旅石八幡前",
    "stop_desc": "",
    "stop_lat": 33.593949659203936,
    "stop_lon": 130.49584043207975,
    "zone_id": "",
    "stop_url": "",
    "location_type": 0,
    "parent_station": "",
    "stop_timezone": "",
    "wheelchair_boarding": ""
  },
  {
    "stop_id": "82n",
    "stop_code": "",
    "stop_name": "四王田団地",
    "stop_desc": "",
    "stop_lat": 33.595299869369214,
    "stop_lon": 130.5025072313819,
    "zone_id": "",
    "stop_url": "",
    "location_type": 0,
    "parent_station": "",
    "stop_timezone": "",
    "wheelchair_boarding": ""
  },
  {
    "stop_id": "82s",
    "stop_code": "",
    "stop_name": "四王田団地",
    "stop_desc": "",
    "stop_lat": 33.595214756929536,
    "stop_lon": 130.5027698780884,
    "zone_id": "",
    "stop_url": "",
    "location_type": 0,
    "parent_station": "",
    "stop_timezone": "",
    "wheelchair_boarding": ""
  }
]